$GPGGA,200825.200,3845.0667,N,07727.2760,W,1,06,1.2,107.7,M,-33.4,M,,0000*67
$GPRMC,200825.200,A,3845.0667,N,07727.2760,W,0.15,102.36,020916,,,A*76
$GPVTG,102.36,T,,M,0.15,N,0.3,K,A*0C
$GPGGA,200825.400,3845.0660,N,07727.2761,W,1,06,1.2,108.2,M,-33.4,M,,0000*6D
$GPRMC,200825.400,A,3845.0660,N,07727.2761,W,0.19,102.36,020916,,,A*7A
$GPVTG,102.36,T,,M,0.19,N,0.4,K,A*07
$GPGGA,200825.600,3845.0655,N,07727.2762,W,1,06,1.2,108.5,M,-33.4,M,,0000*6D
$GPRMC,200825.600,A,3845.0655,N,07727.2762,W,0.07,102.36,020916,,,A*72
$GPVTG,102.36,T,,M,0.07,N,0.1,K,A*0D
$GPGGA,200825.800,3845.0651,N,07727.2763,W,1,06,1.2,108.8,M,-33.4,M,,0000*6B
$GPRMC,200825.800,A,3845.0651,N,07727.2763,W,0.02,102.36,020916,,,A*7C
$GPVTG,102.36,T,,M,0.02,N,0.0,K,A*09
$GPGGA,200826.000,3845.0648,N,07727.2763,W,1,06,1.2,109.1,M,-33.4,M,,0000*60
$GPRMC,200826.000,A,3845.0648,N,07727.2763,W,0.24,102.36,020916,,,A*7B
$GPVTG,102.36,T,,M,0.24,N,0.5,K,A*08
$GPGGA,200826.200,3845.0645,N,07727.2764,W,1,06,1.2,109.3,M,-33.4,M,,0000*6A
$GPRMC,200826.200,A,3845.0645,N,07727.2764,W,0.06,102.36,020916,,,A*73
$GPVTG,102.36,T,,M,0.06,N,0.1,K,A*0C
$GPGGA,200826.400,3845.0643,N,07727.2764,W,1,06,1.2,109.4,M,-33.4,M,,0000*6D
$GPRMC,200826.400,A,3845.0643,N,07727.2764,W,0.12,102.36,020916,,,A*76
$GPVTG,102.36,T,,M,0.12,N,0.2,K,A*0A
$GPGGA,200826.600,3845.0641,N,07727.2765,W,1,06,1.2,109.6,M,-33.4,M,,0000*6E
$GPRMC,200826.600,A,3845.0641,N,07727.2765,W,0.18,102.36,020916,,,A*7D
$GPVTG,102.36,T,,M,0.18,N,0.3,K,A*01
$GPGGA,200826.800,3845.0639,N,07727.2765,W,1,06,1.2,109.7,M,-33.4,M,,0000*6E
$GPRMC,200826.800,A,3845.0639,N,07727.2765,W,0.03,102.36,020916,,,A*76
$GPVTG,102.36,T,,M,0.03,N,0.0,K,A*08
$GPGGA,200827.000,3845.0638,N,07727.2765,W,1,06,1.2,109.8,M,-33.4,M,,0000*69
$GPRMC,200827.000,A,3845.0638,N,07727.2765,W,0.20,102.36,020916,,,A*7F
$GPVTG,102.36,T,,M,0.20,N,0.4,K,A*0D
$GPGGA,200827.200,3845.0636,N,07727.2765,W,1,06,1.2,109.9,M,-33.4,M,,0000*64
$GPRMC,200827.200,A,3845.0636,N,07727.2765,W,0.15,102.36,020916,,,A*75
$GPVTG,102.36,T,,M,0.15,N,0.3,K,A*0C
$GPGGA,200827.400,3845.0635,N,07727.2766,W,1,06,1.2,110.0,M,-33.4,M,,0000*63
$GPRMC,200827.400,A,3845.0635,N,07727.2766,W,0.28,102.36,020916,,,A*7D
$GPVTG,102.36,T,,M,0.28,N,0.5,K,A*04
$GPGGA,200827.600,3845.0634,N,07727.2765,W,1,06,1.2,110.1,M,-33.4,M,,0000*62
$GPRMC,200827.600,A,3845.0634,N,07727.2765,W,0.18,102.36,020916,,,A*7E
$GPVTG,102.36,T,,M,0.18,N,0.3,K,A*01
$GPGGA,200827.800,3845.0633,N,07727.2765,W,1,06,1.2,110.2,M,-33.4,M,,0000*68
$GPRMC,200827.800,A,3845.0633,N,07727.2765,W,0.25,102.36,020916,,,A*79
$GPVTG,102.36,T,,M,0.25,N,0.5,K,A*09
$GPGGA,200828.000,3845.0631,N,07727.2765,W,1,06,1.2,110.2,M,-33.4,M,,0000*6D
$GPRMC,200828.000,A,3845.0631,N,07727.2765,W,0.48,102.36,020916,,,A*77
$GPVTG,102.36,T,,M,0.48,N,0.9,K,A*0E
$GPGGA,200828.200,3845.0630,N,07727.2765,W,1,06,1.2,110.3,M,-33.4,M,,0000*6F
$GPRMC,200828.200,A,3845.0630,N,07727.2765,W,0.63,102.36,020916,,,A*7D
$GPVTG,102.36,T,,M,0.63,N,1.2,K,A*0D
$GPGGA,200828.400,3845.0629,N,07727.2765,W,1,06,1.2,110.4,M,-33.4,M,,0000*66
$GPRMC,200828.400,A,3845.0629,N,07727.2765,W,0.40,102.36,020916,,,A*72
$GPVTG,102.36,T,,M,0.40,N,0.7,K,A*08
$GPGGA,200828.600,3845.0629,N,07727.2765,W,1,06,1.2,110.4,M,-33.4,M,,0000*64
$GPRMC,200828.600,A,3845.0629,N,07727.2765,W,0.27,102.36,020916,,,A*71
$GPVTG,102.36,T,,M,0.27,N,0.5,K,A*0B
$GPGGA,200828.800,3845.0628,N,07727.2764,W,1,06,1.2,110.5,M,-33.4,M,,0000*6B
$GPRMC,200828.800,A,3845.0628,N,07727.2764,W,0.42,102.36,020916,,,A*7C
$GPVTG,102.36,T,,M,0.42,N,0.8,K,A*05
$GPGGA,200829.000,3845.0627,N,07727.2764,W,1,06,1.2,110.5,M,-33.4,M,,0000*6D
$GPRMC,200829.000,A,3845.0627,N,07727.2764,W,0.53,102.36,020916,,,A*7A
$GPVTG,102.36,T,,M,0.53,N,1.0,K,A*0C
$GPGGA,200829.200,3845.0626,N,07727.2764,W,1,06,1.2,110.6,M,-33.4,M,,0000*6D
$GPRMC,200829.200,A,3845.0626,N,07727.2764,W,0.55,102.36,020916,,,A*7F
$GPVTG,102.36,T,,M,0.55,N,1.0,K,A*0A
$GPGGA,200829.400,3845.0626,N,07727.2764,W,1,06,1.2,110.6,M,-33.4,M,,0000*6B
$GPRMC,200829.400,A,3845.0626,N,07727.2764,W,0.57,102.36,020916,,,A*7B
$GPVTG,102.36,T,,M,0.57,N,1.1,K,A*09
$GPGGA,200829.600,3845.0625,N,07727.2764,W,1,06,1.2,110.6,M,-33.4,M,,0000*6A
$GPRMC,200829.600,A,3845.0625,N,07727.2764,W,0.55,102.36,020916,,,A*78
$GPVTG,102.36,T,,M,0.55,N,1.0,K,A*0A
$GPGGA,200829.800,3845.0625,N,07727.2764,W,1,06,1.2,110.6,M,-33.4,M,,0000*64
$GPRMC,200829.800,A,3845.0625,N,07727.2764,W,0.42,102.36,020916,,,A*70
$GPVTG,102.36,T,,M,0.42,N,0.8,K,A*05
$GPGGA,200830.000,3845.0625,N,07727.2764,W,1,06,1.2,110.7,M,-33.4,M,,0000*65
$GPRMC,200830.000,A,3845.0625,N,07727.2764,W,0.31,102.36,020916,,,A*74
$GPVTG,102.36,T,,M,0.31,N,0.6,K,A*0F
$GPGGA,200830.200,3845.0625,N,07727.2764,W,1,05,1.3,110.7,M,-33.4,M,,0000*65
$GPRMC,200830.200,A,3845.0625,N,07727.2764,W,0.32,102.36,020916,,,A*75
$GPVTG,102.36,T,,M,0.32,N,0.6,K,A*0C
$GPGGA,200830.400,3845.0625,N,07727.2764,W,1,06,1.2,110.7,M,-33.4,M,,0000*61
$GPRMC,200830.400,A,3845.0625,N,07727.2764,W,0.22,102.36,020916,,,A*72
$GPVTG,102.36,T,,M,0.22,N,0.4,K,A*0F
$GPGGA,200830.600,3845.0625,N,07727.2765,W,1,06,1.2,110.7,M,-33.4,M,,0000*62
$GPRMC,200830.600,A,3845.0625,N,07727.2765,W,0.04,102.36,020916,,,A*75
$GPVTG,102.36,T,,M,0.04,N,0.1,K,A*0E
$GPGGA,200830.800,3845.0625,N,07727.2765,W,1,06,1.2,110.7,M,-33.4,M,,0000*6C
$GPRMC,200830.800,A,3845.0625,N,07727.2765,W,0.07,102.36,020916,,,A*78
$GPVTG,102.36,T,,M,0.07,N,0.1,K,A*0D
$GPGGA,200831.000,3845.0625,N,07727.2765,W,1,06,1.2,110.8,M,-33.4,M,,0000*6A
$GPRMC,200831.000,A,3845.0625,N,07727.2765,W,0.08,102.36,020916,,,A*7E
$GPVTG,102.36,T,,M,0.08,N,0.2,K,A*01
$GPGGA,200831.200,3845.0625,N,07727.2765,W,1,06,1.2,110.8,M,-33.4,M,,0000*68
$GPRMC,200831.200,A,3845.0625,N,07727.2765,W,0.11,102.36,020916,,,A*74
$GPVTG,102.36,T,,M,0.11,N,0.2,K,A*09
$GPGGA,200831.400,3845.0626,N,07727.2765,W,1,06,1.2,110.8,M,-33.4,M,,0000*6D
$GPRMC,200831.400,A,3845.0626,N,07727.2765,W,0.19,102.36,020916,,,A*79
$GPVTG,102.36,T,,M,0.19,N,0.4,K,A*07
$GPGGA,200831.600,3845.0625,N,07727.2765,W,1,06,1.2,110.8,M,-33.4,M,,0000*6C
$GPRMC,200831.600,A,3845.0625,N,07727.2765,W,0.03,102.36,020916,,,A*73
$GPVTG,102.36,T,,M,0.03,N,0.1,K,A*09
$GPGGA,200831.800,3845.0626,N,07727.2766,W,1,06,1.2,110.9,M,-33.4,M,,0000*63
$GPRMC,200831.800,A,3845.0626,N,07727.2766,W,0.03,102.36,020916,,,A*7D
$GPVTG,102.36,T,,M,0.03,N,0.0,K,A*08
$GPGGA,200832.000,3845.0626,N,07727.2766,W,1,06,1.2,110.9,M,-33.4,M,,0000*68
$GPRMC,200832.000,A,3845.0626,N,07727.2766,W,0.24,102.36,020916,,,A*73
$GPVTG,102.36,T,,M,0.24,N,0.4,K,A*09
$GPGGA,200832.200,3845.0626,N,07727.2767,W,1,06,1.2,110.9,M,-33.4,M,,0000*6B
$GPRMC,200832.200,A,3845.0626,N,07727.2767,W,0.32,102.36,020916,,,A*77
$GPVTG,102.36,T,,M,0.32,N,0.6,K,A*0C
$GPGGA,200832.400,3845.0627,N,07727.2767,W,1,06,1.2,110.9,M,-33.4,M,,0000*6C
$GPRMC,200832.400,A,3845.0627,N,07727.2767,W,0.33,102.36,020916,,,A*71
$GPVTG,102.36,T,,M,0.33,N,0.6,K,A*0D
$GPGGA,200832.599,3845.0627,N,07727.2767,W,1,06,1.2,110.9,M,-33.4,M,,0000*6D
$GPRMC,200832.599,A,3845.0627,N,07727.2767,W,0.35,102.36,020916,,,A*76
$GPVTG,102.36,T,,M,0.35,N,0.6,K,A*0B
$GPGGA,200832.800,3845.0627,N,07727.2768,W,1,06,1.2,110.9,M,-33.4,M,,0000*6F
$GPRMC,200832.800,A,3845.0627,N,07727.2768,W,0.25,102.36,020916,,,A*75
$GPVTG,102.36,T,,M,0.25,N,0.5,K,A*09
$GPGGA,200833.000,3845.0628,N,07727.2768,W,1,06,1.2,111.0,M,-33.4,M,,0000*61
$GPRMC,200833.000,A,3845.0628,N,07727.2768,W,0.34,102.36,020916,,,A*73
$GPVTG,102.36,T,,M,0.34,N,0.6,K,A*0A
$GPGGA,200833.200,3845.0628,N,07727.2768,W,1,06,1.2,111.0,M,-33.4,M,,0000*63
$GPRMC,200833.200,A,3845.0628,N,07727.2768,W,0.31,102.36,020916,,,A*74
$GPVTG,102.36,T,,M,0.31,N,0.6,K,A*0F
$GPGGA,200833.400,3845.0629,N,07727.2769,W,1,06,1.2,111.0,M,-33.4,M,,0000*65
$GPRMC,200833.400,A,3845.0629,N,07727.2769,W,0.44,102.36,020916,,,A*70
$GPVTG,102.36,T,,M,0.44,N,0.8,K,A*03
$GPGGA,200833.600,3845.0629,N,07727.2769,W,1,06,1.2,111.0,M,-33.4,M,,0000*67
$GPRMC,200833.600,A,3845.0629,N,07727.2769,W,0.36,102.36,020916,,,A*77
$GPVTG,102.36,T,,M,0.36,N,0.7,K,A*09
$GPGGA,200833.800,3845.0629,N,07727.2769,W,1,06,1.2,111.0,M,-33.4,M,,0000*69
$GPRMC,200833.800,A,3845.0629,N,07727.2769,W,0.34,102.36,020916,,,A*7B
$GPVTG,102.36,T,,M,0.34,N,0.6,K,A*0A
$GPGGA,200834.000,3845.0629,N,07727.2769,W,1,06,1.2,111.0,M,-33.4,M,,0000*66
$GPRMC,200834.000,A,3845.0629,N,07727.2769,W,0.35,102.36,020916,,,A*75
$GPVTG,102.36,T,,M,0.35,N,0.7,K,A*0A
$GPGGA,200834.200,3845.0630,N,07727.2770,W,1,06,1.2,111.0,M,-33.4,M,,0000*64
$GPRMC,200834.200,A,3845.0630,N,07727.2770,W,0.30,102.36,020916,,,A*72
$GPVTG,102.36,T,,M,0.30,N,0.6,K,A*0E
$GPGGA,200834.400,3845.0630,N,07727.2770,W,1,06,1.2,111.1,M,-33.4,M,,0000*63
$GPRMC,200834.400,A,3845.0630,N,07727.2770,W,0.33,102.36,020916,,,A*77
$GPVTG,102.36,T,,M,0.33,N,0.6,K,A*0D
$GPGGA,200834.600,3845.0630,N,07727.2771,W,1,06,1.2,111.1,M,-33.4,M,,0000*60
$GPRMC,200834.600,A,3845.0630,N,07727.2771,W,0.47,102.36,020916,,,A*77
$GPVTG,102.36,T,,M,0.47,N,0.9,K,A*01
$GPGGA,200834.800,3845.0631,N,07727.2771,W,1,06,1.2,111.1,M,-33.4,M,,0000*6F
$GPRMC,200834.800,A,3845.0631,N,07727.2771,W,0.36,102.36,020916,,,A*7E
$GPVTG,102.36,T,,M,0.36,N,0.7,K,A*09
$GPGGA,200835.000,3845.0631,N,07727.2771,W,1,06,1.2,111.1,M,-33.4,M,,0000*66
$GPRMC,200835.000,A,3845.0631,N,07727.2771,W,0.11,102.36,020916,,,A*72
$GPVTG,102.36,T,,M,0.11,N,0.2,K,A*09
$GPGGA,200835.200,3845.0631,N,07727.2771,W,1,06,1.2,111.1,M,-33.4,M,,0000*64
$GPRMC,200835.200,A,3845.0631,N,07727.2771,W,0.20,102.36,020916,,,A*72
$GPVTG,102.36,T,,M,0.20,N,0.4,K,A*0D
$GPGGA,200835.400,3845.0631,N,07727.2770,W,1,06,1.2,111.1,M,-33.4,M,,0000*63
$GPRMC,200835.400,A,3845.0631,N,07727.2770,W,0.41,102.36,020916,,,A*72
$GPVTG,102.36,T,,M,0.41,N,0.8,K,A*06
$GPGGA,200835.600,3845.0631,N,07727.2771,W,1,06,1.2,111.2,M,-33.4,M,,0000*63
$GPRMC,200835.600,A,3845.0631,N,07727.2771,W,0.14,102.36,020916,,,A*71
$GPVTG,102.36,T,,M,0.14,N,0.3,K,A*0D
$GPGGA,200835.800,3845.0631,N,07727.2771,W,1,06,1.2,111.2,M,-33.4,M,,0000*6D
$GPRMC,200835.800,A,3845.0631,N,07727.2771,W,0.22,102.36,020916,,,A*7A
$GPVTG,102.36,T,,M,0.22,N,0.4,K,A*0F
$GPGGA,200836.000,3845.0631,N,07727.2771,W,1,06,1.2,111.2,M,-33.4,M,,0000*66
$GPRMC,200836.000,A,3845.0631,N,07727.2771,W,0.23,102.36,020916,,,A*70
$GPVTG,102.36,T,,M,0.23,N,0.4,K,A*0E
$GPGGA,200836.200,3845.0631,N,07727.2772,W,1,06,1.2,111.2,M,-33.4,M,,0000*67
$GPRMC,200836.200,A,3845.0631,N,07727.2772,W,0.32,102.36,020916,,,A*71
$GPVTG,102.36,T,,M,0.32,N,0.6,K,A*0C
$GPGGA,200836.400,3845.0631,N,07727.2772,W,1,06,1.2,111.2,M,-33.4,M,,0000*61
$GPRMC,200836.400,A,3845.0631,N,07727.2772,W,0.23,102.36,020916,,,A*77
$GPVTG,102.36,T,,M,0.23,N,0.4,K,A*0E
$GPGGA,200836.600,3845.0631,N,07727.2772,W,1,06,1.2,111.2,M,-33.4,M,,0000*63
$GPRMC,200836.600,A,3845.0631,N,07727.2772,W,0.20,102.36,020916,,,A*76
$GPVTG,102.36,T,,M,0.20,N,0.4,K,A*0D
$GPGGA,200836.800,3845.0631,N,07727.2772,W,1,06,1.2,111.2,M,-33.4,M,,0000*6D
$GPRMC,200836.800,A,3845.0631,N,07727.2772,W,0.28,102.36,020916,,,A*70
$GPVTG,102.36,T,,M,0.28,N,0.5,K,A*04
$GPGGA,200837.000,3845.0631,N,07727.2772,W,1,06,1.2,111.3,M,-33.4,M,,0000*65
$GPRMC,200837.000,A,3845.0631,N,07727.2772,W,0.21,102.36,020916,,,A*70
$GPVTG,102.36,T,,M,0.21,N,0.4,K,A*0C
$GPGGA,200837.200,3845.0630,N,07727.2771,W,1,06,1.2,111.3,M,-33.4,M,,0000*65
$GPRMC,200837.200,A,3845.0630,N,07727.2771,W,0.44,102.36,020916,,,A*73
$GPVTG,102.36,T,,M,0.44,N,0.8,K,A*03
$GPGGA,200837.400,3845.0630,N,07727.2771,W,1,06,1.2,111.3,M,-33.4,M,,0000*63
$GPRMC,200837.400,A,3845.0630,N,07727.2771,W,0.55,102.36,020916,,,A*75
$GPVTG,102.36,T,,M,0.55,N,1.0,K,A*0A
$GPGGA,200837.600,3845.0630,N,07727.2771,W,1,06,1.2,111.3,M,-33.4,M,,0000*61
$GPRMC,200837.600,A,3845.0630,N,07727.2771,W,0.41,102.36,020916,,,A*72
$GPVTG,102.36,T,,M,0.41,N,0.8,K,A*06
$GPGGA,200837.800,3845.0630,N,07727.2771,W,1,06,1.2,111.3,M,-33.4,M,,0000*6F
$GPRMC,200837.800,A,3845.0630,N,07727.2771,W,0.36,102.36,020916,,,A*7C
$GPVTG,102.36,T,,M,0.36,N,0.7,K,A*09
$GPGGA,200838.000,3845.0630,N,07727.2771,W,1,06,1.2,111.4,M,-33.4,M,,0000*6F
$GPRMC,200838.000,A,3845.0630,N,07727.2771,W,0.35,102.36,020916,,,A*78
$GPVTG,102.36,T,,M,0.35,N,0.6,K,A*0B
$GPGGA,200838.200,3845.0630,N,07727.2770,W,1,06,1.2,111.4,M,-33.4,M,,0000*6C
$GPRMC,200838.200,A,3845.0630,N,07727.2770,W,0.38,102.36,020916,,,A*76
$GPVTG,102.36,T,,M,0.38,N,0.7,K,A*07
$GPGGA,200838.400,3845.0630,N,07727.2770,W,1,06,1.2,111.4,M,-33.4,M,,0000*6A
$GPRMC,200838.400,A,3845.0630,N,07727.2770,W,0.40,102.36,020916,,,A*7F
$GPVTG,102.36,T,,M,0.40,N,0.7,K,A*08
$GPGGA,200838.600,3845.0630,N,07727.2770,W,1,06,1.2,111.4,M,-33.4,M,,0000*68
$GPRMC,200838.600,A,3845.0630,N,07727.2770,W,0.20,102.36,020916,,,A*7B
$GPVTG,102.36,T,,M,0.20,N,0.4,K,A*0D
$GPGGA,200838.800,3845.0630,N,07727.2770,W,1,06,1.2,111.5,M,-33.4,M,,0000*67
$GPRMC,200838.800,A,3845.0630,N,07727.2770,W,0.17,102.36,020916,,,A*71
$GPVTG,102.36,T,,M,0.17,N,0.3,K,A*0E
$GPGGA,200839.000,3845.0630,N,07727.2770,W,1,06,1.2,111.5,M,-33.4,M,,0000*6E
$GPRMC,200839.000,A,3845.0630,N,07727.2770,W,0.08,102.36,020916,,,A*76
$GPVTG,102.36,T,,M,0.08,N,0.1,K,A*02
$GPGGA,200839.200,3845.0630,N,07727.2770,W,1,06,1.2,111.5,M,-33.4,M,,0000*6C
$GPRMC,200839.200,A,3845.0630,N,07727.2770,W,0.08,102.36,020916,,,A*74
$GPVTG,102.36,T,,M,0.08,N,0.1,K,A*02
$GPGGA,200839.400,3845.0631,N,07727.2771,W,1,06,1.2,111.5,M,-33.4,M,,0000*6A
$GPRMC,200839.400,A,3845.0631,N,07727.2771,W,0.17,102.36,020916,,,A*7C
$GPVTG,102.36,T,,M,0.17,N,0.3,K,A*0E
$GPGGA,200839.600,3845.0631,N,07727.2771,W,1,06,1.2,111.6,M,-33.4,M,,0000*6B
$GPRMC,200839.600,A,3845.0631,N,07727.2771,W,0.19,102.36,020916,,,A*70
$GPVTG,102.36,T,,M,0.19,N,0.4,K,A*07
$GPGGA,200839.800,3845.0631,N,07727.2770,W,1,06,1.2,111.6,M,-33.4,M,,0000*64
$GPRMC,200839.800,A,3845.0631,N,07727.2770,W,0.07,102.36,020916,,,A*70
$GPVTG,102.36,T,,M,0.07,N,0.1,K,A*0D
$GPGGA,200840.000,3845.0630,N,07727.2770,W,1,06,1.2,111.6,M,-33.4,M,,0000*63
$GPRMC,200840.000,A,3845.0630,N,07727.2770,W,0.07,102.36,020916,,,A*77
$GPVTG,102.36,T,,M,0.07,N,0.1,K,A*0D
$GPGGA,200840.200,3845.0630,N,07727.2770,W,1,06,1.2,111.7,M,-33.4,M,,0000*60
$GPRMC,200840.200,A,3845.0630,N,07727.2770,W,0.24,102.36,020916,,,A*74
$GPVTG,102.36,T,,M,0.24,N,0.4,K,A*09
$GPGGA,200840.400,3845.0630,N,07727.2770,W,1,06,1.2,111.7,M,-33.4,M,,0000*66
$GPRMC,200840.400,A,3845.0630,N,07727.2770,W,0.07,102.36,020916,,,A*73
$GPVTG,102.36,T,,M,0.07,N,0.1,K,A*0D
$GPGGA,200840.600,3845.0631,N,07727.2770,W,1,06,1.2,111.8,M,-33.4,M,,0000*6A
$GPRMC,200840.600,A,3845.0631,N,07727.2770,W,0.15,102.36,020916,,,A*73
$GPVTG,102.36,T,,M,0.15,N,0.3,K,A*0C
$GPGGA,200840.800,3845.0631,N,07727.2770,W,1,06,1.2,111.8,M,-33.4,M,,0000*64
$GPRMC,200840.800,A,3845.0631,N,07727.2770,W,0.18,102.36,020916,,,A*70
$GPVTG,102.36,T,,M,0.18,N,0.3,K,A*01
$GPGGA,200841.000,3845.0631,N,07727.2770,W,1,06,1.2,111.9,M,-33.4,M,,0000*6C
$GPRMC,200841.000,A,3845.0631,N,07727.2770,W,0.19,102.36,020916,,,A*78
$GPVTG,102.36,T,,M,0.19,N,0.4,K,A*07
$GPGGA,200841.200,3845.0631,N,07727.2770,W,1,06,1.2,111.9,M,-33.4,M,,0000*6E
$GPRMC,200841.200,A,3845.0631,N,07727.2770,W,0.07,102.36,020916,,,A*75
$GPVTG,102.36,T,,M,0.07,N,0.1,K,A*0D
$GPGGA,200841.400,3845.0631,N,07727.2770,W,1,06,1.2,112.0,M,-33.4,M,,0000*62
$GPRMC,200841.400,A,3845.0631,N,07727.2770,W,0.06,102.36,020916,,,A*72
$GPVTG,102.36,T,,M,0.06,N,0.1,K,A*0C
$GPGGA,200841.600,3845.0631,N,07727.2770,W,1,06,1.2,112.0,M,-33.4,M,,0000*60
$GPRMC,200841.600,A,3845.0631,N,07727.2770,W,0.16,102.36,020916,,,A*71
$GPVTG,102.36,T,,M,0.16,N,0.3,K,A*0F
$GPGGA,200841.800,3845.0631,N,07727.2770,W,1,06,1.2,112.0,M,-33.4,M,,0000*6E
$GPRMC,200841.800,A,3845.0631,N,07727.2770,W,0.13,102.36,020916,,,A*7A
$GPVTG,102.36,T,,M,0.13,N,0.2,K,A*0B
$GPGGA,200842.000,3845.0631,N,07727.2770,W,1,06,1.2,112.1,M,-33.4,M,,0000*64
$GPRMC,200842.000,A,3845.0631,N,07727.2770,W,0.04,102.36,020916,,,A*77
$GPVTG,102.36,T,,M,0.04,N,0.1,K,A*0E
$GPGGA,200842.200,3845.0630,N,07727.2769,W,1,06,1.2,112.1,M,-33.4,M,,0000*6F
$GPRMC,200842.200,A,3845.0630,N,07727.2769,W,0.25,102.36,020916,,,A*7F
$GPVTG,102.36,T,,M,0.25,N,0.5,K,A*09
$GPGGA,200842.400,3845.0630,N,07727.2769,W,1,06,1.2,112.1,M,-33.4,M,,0000*69
$GPRMC,200842.400,A,3845.0630,N,07727.2769,W,0.26,102.36,020916,,,A*7A
$GPVTG,102.36,T,,M,0.26,N,0.5,K,A*0A
$GPGGA,200842.600,3845.0630,N,07727.2769,W,1,06,1.2,112.2,M,-33.4,M,,0000*68
$GPRMC,200842.600,A,3845.0630,N,07727.2769,W,0.25,102.36,020916,,,A*7B
$GPVTG,102.36,T,,M,0.25,N,0.5,K,A*09
$GPGGA,200842.800,3845.0630,N,07727.2769,W,1,06,1.2,112.2,M,-33.4,M,,0000*66
$GPRMC,200842.800,A,3845.0630,N,07727.2769,W,0.16,102.36,020916,,,A*75
$GPVTG,102.36,T,,M,0.16,N,0.3,K,A*0F
$GPGGA,200843.000,3845.0630,N,07727.2769,W,1,06,1.2,112.2,M,-33.4,M,,0000*6F
$GPRMC,200843.000,A,3845.0630,N,07727.2769,W,0.23,102.36,020916,,,A*7A
$GPVTG,102.36,T,,M,0.23,N,0.4,K,A*0E
$GPGGA,200843.200,3845.0630,N,07727.2769,W,1,06,1.2,112.3,M,-33.4,M,,0000*6C
$GPRMC,200843.200,A,3845.0630,N,07727.2769,W,0.21,102.36,020916,,,A*7A
$GPVTG,102.36,T,,M,0.21,N,0.4,K,A*0C
$GPGGA,200843.400,3845.0631,N,07727.2769,W,1,06,1.2,112.3,M,-33.4,M,,0000*6B
$GPRMC,200843.400,A,3845.0631,N,07727.2769,W,0.01,102.36,020916,,,A*7F
$GPVTG,102.36,T,,M,0.01,N,0.0,K,A*0A
$GPGGA,200843.600,3845.0631,N,07727.2769,W,1,06,1.2,112.3,M,-33.4,M,,0000*69
$GPRMC,200843.600,A,3845.0631,N,07727.2769,W,0.13,102.36,020916,,,A*7E
$GPVTG,102.36,T,,M,0.13,N,0.2,K,A*0B
$GPGGA,200843.800,3845.0631,N,07727.2770,W,1,06,1.2,112.3,M,-33.4,M,,0000*6F
$GPRMC,200843.800,A,3845.0631,N,07727.2770,W,0.27,102.36,020916,,,A*7F
$GPVTG,102.36,T,,M,0.27,N,0.5,K,A*0B
$GPGGA,200844.000,3845.0631,N,07727.2770,W,1,06,1.2,112.4,M,-33.4,M,,0000*67
$GPRMC,200844.000,A,3845.0631,N,07727.2770,W,0.32,102.36,020916,,,A*74
$GPVTG,102.36,T,,M,0.32,N,0.6,K,A*0C
$GPGGA,200844.200,3845.0631,N,07727.2770,W,1,06,1.2,112.4,M,-33.4,M,,0000*65
$GPRMC,200844.200,A,3845.0631,N,07727.2770,W,0.13,102.36,020916,,,A*75
$GPVTG,102.36,T,,M,0.13,N,0.2,K,A*0B
$GPGGA,200844.400,3845.0631,N,07727.2770,W,1,06,1.2,112.4,M,-33.4,M,,0000*63
$GPRMC,200844.400,A,3845.0631,N,07727.2770,W,0.12,102.36,020916,,,A*72
$GPVTG,102.36,T,,M,0.12,N,0.2,K,A*0A
$GPGGA,200844.600,3845.0631,N,07727.2770,W,1,06,1.2,112.4,M,-33.4,M,,0000*61
$GPRMC,200844.600,A,3845.0631,N,07727.2770,W,0.11,102.36,020916,,,A*73
$GPVTG,102.36,T,,M,0.11,N,0.2,K,A*09
$GPGGA,200844.800,3845.0631,N,07727.2770,W,1,06,1.2,112.4,M,-33.4,M,,0000*6F
$GPRMC,200844.800,A,3845.0631,N,07727.2770,W,0.13,102.36,020916,,,A*7F
$GPVTG,102.36,T,,M,0.13,N,0.2,K,A*0B
$GPGGA,200845.000,3845.0632,N,07727.2771,W,1,06,1.2,112.5,M,-33.4,M,,0000*65
$GPRMC,200845.000,A,3845.0632,N,07727.2771,W,0.03,102.36,020916,,,A*75
$GPVTG,102.36,T,,M,0.03,N,0.1,K,A*09
$GPGGA,200845.200,3845.0632,N,07727.2770,W,1,06,1.2,112.5,M,-33.4,M,,0000*66
$GPRMC,200845.200,A,3845.0632,N,07727.2770,W,0.16,102.36,020916,,,A*72
$GPVTG,102.36,T,,M,0.16,N,0.3,K,A*0F
$GPGGA,200845.400,3845.0632,N,07727.2771,W,1,06,1.2,112.5,M,-33.4,M,,0000*61
$GPRMC,200845.400,A,3845.0632,N,07727.2771,W,0.14,102.36,020916,,,A*77
$GPVTG,102.36,T,,M,0.14,N,0.3,K,A*0D
$GPGGA,200845.600,3845.0632,N,07727.2770,W,1,06,1.2,112.5,M,-33.4,M,,0000*62
$GPRMC,200845.600,A,3845.0632,N,07727.2770,W,0.25,102.36,020916,,,A*76
$GPVTG,102.36,T,,M,0.25,N,0.5,K,A*09
$GPGGA,200845.800,3845.0632,N,07727.2770,W,1,06,1.2,112.5,M,-33.4,M,,0000*6C
$GPRMC,200845.800,A,3845.0632,N,07727.2770,W,0.24,102.36,020916,,,A*79
$GPVTG,102.36,T,,M,0.24,N,0.4,K,A*09
$GPGGA,200846.000,3845.0632,N,07727.2771,W,1,06,1.2,112.6,M,-33.4,M,,0000*65
$GPRMC,200846.000,A,3845.0632,N,07727.2771,W,0.12,102.36,020916,,,A*76
$GPVTG,102.36,T,,M,0.12,N,0.2,K,A*0A
$GPGGA,200846.200,3845.0633,N,07727.2771,W,1,06,1.2,112.6,M,-33.4,M,,0000*66
$GPRMC,200846.200,A,3845.0633,N,07727.2771,W,0.12,102.36,020916,,,A*75
$GPVTG,102.36,T,,M,0.12,N,0.2,K,A*0A
$GPGGA,200846.400,3845.0633,N,07727.2771,W,1,06,1.2,112.6,M,-33.4,M,,0000*60
$GPRMC,200846.400,A,3845.0633,N,07727.2771,W,0.03,102.36,020916,,,A*73
$GPVTG,102.36,T,,M,0.03,N,0.1,K,A*09
$GPGGA,200846.600,3845.0633,N,07727.2771,W,1,06,1.2,112.6,M,-33.4,M,,0000*62
$GPRMC,200846.600,A,3845.0633,N,07727.2771,W,0.13,102.36,020916,,,A*70
$GPVTG,102.36,T,,M,0.13,N,0.2,K,A*0B
$GPGGA,200846.800,3845.0633,N,07727.2771,W,1,06,1.2,112.7,M,-33.4,M,,0000*6D
$GPRMC,200846.800,A,3845.0633,N,07727.2771,W,0.01,102.36,020916,,,A*7D
$GPVTG,102.36,T,,M,0.01,N,0.0,K,A*0A
$GPGGA,200847.000,3845.0633,N,07727.2771,W,1,06,1.2,112.7,M,-33.4,M,,0000*64
$GPRMC,200847.000,A,3845.0633,N,07727.2771,W,0.23,102.36,020916,,,A*74
$GPVTG,102.36,T,,M,0.23,N,0.4,K,A*0E
$GPGGA,200847.200,3845.0633,N,07727.2771,W,1,06,1.2,112.7,M,-33.4,M,,0000*66
$GPRMC,200847.200,A,3845.0633,N,07727.2771,W,0.25,102.36,020916,,,A*70
$GPVTG,102.36,T,,M,0.25,N,0.5,K,A*09
$GPGGA,200847.400,3845.0633,N,07727.2771,W,1,06,1.2,112.7,M,-33.4,M,,0000*60
$GPRMC,200847.400,A,3845.0633,N,07727.2771,W,0.23,102.36,020916,,,A*70
$GPVTG,102.36,T,,M,0.23,N,0.4,K,A*0E
$GPGGA,200847.600,3845.0633,N,07727.2772,W,1,06,1.2,112.7,M,-33.4,M,,0000*61
$GPRMC,200847.600,A,3845.0633,N,07727.2772,W,0.04,102.36,020916,,,A*74
$GPVTG,102.36,T,,M,0.04,N,0.1,K,A*0E
$GPGGA,200847.800,3845.0634,N,07727.2772,W,1,06,1.2,112.7,M,-33.4,M,,0000*68
$GPRMC,200847.800,A,3845.0634,N,07727.2772,W,0.19,102.36,020916,,,A*71
$GPVTG,102.36,T,,M,0.19,N,0.3,K,A*00
$GPGGA,200848.000,3845.0634,N,07727.2772,W,1,06,1.2,112.8,M,-33.4,M,,0000*60
$GPRMC,200848.000,A,3845.0634,N,07727.2772,W,0.17,102.36,020916,,,A*78
$GPVTG,102.36,T,,M,0.17,N,0.3,K,A*0E
$GPGGA,200848.200,3845.0634,N,07727.2772,W,1,06,1.2,112.8,M,-33.4,M,,0000*62
$GPRMC,200848.200,A,3845.0634,N,07727.2772,W,0.06,102.36,020916,,,A*7A
$GPVTG,102.36,T,,M,0.06,N,0.1,K,A*0C
$GPGGA,200848.400,3845.0634,N,07727.2772,W,1,06,1.2,112.8,M,-33.4,M,,0000*64
$GPRMC,200848.400,A,3845.0634,N,07727.2772,W,0.15,102.36,020916,,,A*7E
$GPVTG,102.36,T,,M,0.15,N,0.3,K,A*0C
$GPGGA,200848.600,3845.0634,N,07727.2772,W,1,06,1.2,112.8,M,-33.4,M,,0000*66
$GPRMC,200848.600,A,3845.0634,N,07727.2772,W,0.25,102.36,020916,,,A*7F
$GPVTG,102.36,T,,M,0.25,N,0.5,K,A*09
$GPGGA,200848.800,3845.0634,N,07727.2772,W,1,06,1.2,112.8,M,-33.4,M,,0000*68
$GPRMC,200848.800,A,3845.0634,N,07727.2772,W,0.26,102.36,020916,,,A*72
$GPVTG,102.36,T,,M,0.26,N,0.5,K,A*0A
$GPGGA,200849.000,3845.0634,N,07727.2773,W,1,06,1.2,112.8,M,-33.4,M,,0000*60
$GPRMC,200849.000,A,3845.0634,N,07727.2773,W,0.27,102.36,020916,,,A*7B
$GPVTG,102.36,T,,M,0.27,N,0.5,K,A*0B
$GPGGA,200849.200,3845.0634,N,07727.2773,W,1,06,1.2,112.8,M,-33.4,M,,0000*62
$GPRMC,200849.200,A,3845.0634,N,07727.2773,W,0.18,102.36,020916,,,A*75
$GPVTG,102.36,T,,M,0.18,N,0.3,K,A*01
$GPGGA,200849.400,3845.0634,N,07727.2772,W,1,06,1.2,112.8,M,-33.4,M,,0000*65
$GPRMC,200849.400,A,3845.0634,N,07727.2772,W,0.12,102.36,020916,,,A*78
$GPVTG,102.36,T,,M,0.12,N,0.2,K,A*0A
$GPGGA,200849.600,3845.0634,N,07727.2772,W,1,06,1.2,112.9,M,-33.4,M,,0000*66
$GPRMC,200849.600,A,3845.0634,N,07727.2772,W,0.16,102.36,020916,,,A*7E
$GPVTG,102.36,T,,M,0.16,N,0.3,K,A*0F
$GPGGA,200849.800,3845.0634,N,07727.2772,W,1,06,1.2,112.9,M,-33.4,M,,0000*68
$GPRMC,200849.800,A,3845.0634,N,07727.2772,W,0.02,102.36,020916,,,A*75
$GPVTG,102.36,T,,M,0.02,N,0.0,K,A*09
$GPGGA,200850.000,3845.0634,N,07727.2772,W,1,06,1.2,112.9,M,-33.4,M,,0000*68
$GPRMC,200850.000,A,3845.0634,N,07727.2772,W,0.09,102.36,020916,,,A*7E
$GPVTG,102.36,T,,M,0.09,N,0.2,K,A*00
$GPGGA,200850.200,3845.0634,N,07727.2772,W,1,06,1.2,112.9,M,-33.4,M,,0000*6A
$GPRMC,200850.200,A,3845.0634,N,07727.2772,W,0.03,102.36,020916,,,A*76
$GPVTG,102.36,T,,M,0.03,N,0.1,K,A*09
$GPGGA,200850.400,3845.0634,N,07727.2772,W,1,06,1.2,112.9,M,-33.4,M,,0000*6C
$GPRMC,200850.400,A,3845.0634,N,07727.2772,W,0.08,102.36,020916,,,A*7B
$GPVTG,102.36,T,,M,0.08,N,0.1,K,A*02
$GPGGA,200850.600,3845.0634,N,07727.2772,W,1,06,1.2,112.9,M,-33.4,M,,0000*6E
$GPRMC,200850.600,A,3845.0634,N,07727.2772,W,0.13,102.36,020916,,,A*73
$GPVTG,102.36,T,,M,0.13,N,0.2,K,A*0B
$GPGGA,200850.800,3845.0634,N,07727.2772,W,1,06,1.2,113.0,M,-33.4,M,,0000*68
$GPRMC,200850.800,A,3845.0634,N,07727.2772,W,0.12,102.36,020916,,,A*7C
$GPVTG,102.36,T,,M,0.12,N,0.2,K,A*0A
$GPGGA,200851.000,3845.0635,N,07727.2772,W,1,06,1.2,113.0,M,-33.4,M,,0000*60
$GPRMC,200851.000,A,3845.0635,N,07727.2772,W,0.15,102.36,020916,,,A*73
$GPVTG,102.36,T,,M,0.15,N,0.3,K,A*0C
$GPGGA,200851.200,3845.0635,N,07727.2772,W,1,06,1.2,113.0,M,-33.4,M,,0000*62
$GPRMC,200851.200,A,3845.0635,N,07727.2772,W,0.20,102.36,020916,,,A*77
$GPVTG,102.36,T,,M,0.20,N,0.4,K,A*0D
$GPGGA,200851.400,3845.0635,N,07727.2772,W,1,06,1.2,113.0,M,-33.4,M,,0000*64
$GPRMC,200851.400,A,3845.0635,N,07727.2772,W,0.12,102.36,020916,,,A*70
$GPVTG,102.36,T,,M,0.12,N,0.2,K,A*0A
$GPGGA,200851.600,3845.0635,N,07727.2772,W,1,06,1.2,113.0,M,-33.4,M,,0000*66
$GPRMC,200851.600,A,3845.0635,N,07727.2772,W,0.08,102.36,020916,,,A*79
$GPVTG,102.36,T,,M,0.08,N,0.2,K,A*01
$GPGGA,200851.800,3845.0635,N,07727.2772,W,1,06,1.2,113.0,M,-33.4,M,,0000*68
$GPRMC,200851.800,A,3845.0635,N,07727.2772,W,0.09,102.36,020916,,,A*76
$GPVTG,102.36,T,,M,0.09,N,0.2,K,A*00
$GPGGA,200852.000,3845.0635,N,07727.2772,W,1,06,1.2,113.0,M,-33.4,M,,0000*63
$GPRMC,200852.000,A,3845.0635,N,07727.2772,W,0.23,102.36,020916,,,A*75
$GPVTG,102.36,T,,M,0.23,N,0.4,K,A*0E
$GPGGA,200852.200,3845.0635,N,07727.2772,W,1,06,1.2,113.0,M,-33.4,M,,0000*61
$GPRMC,200852.200,A,3845.0635,N,07727.2772,W,0.20,102.36,020916,,,A*74
$GPVTG,102.36,T,,M,0.20,N,0.4,K,A*0D
$GPGGA,200852.400,3845.0635,N,07727.2772,W,1,06,1.2,113.0,M,-33.4,M,,0000*67
$GPRMC,200852.400,A,3845.0635,N,07727.2772,W,0.14,102.36,020916,,,A*75
$GPVTG,102.36,T,,M,0.14,N,0.3,K,A*0D
$GPGGA,200852.600,3845.0635,N,07727.2772,W,1,06,1.2,113.1,M,-33.4,M,,0000*64
$GPRMC,200852.600,A,3845.0635,N,07727.2772,W,0.18,102.36,020916,,,A*7B
$GPVTG,102.36,T,,M,0.18,N,0.3,K,A*01
$GPGGA,200852.800,3845.0635,N,07727.2772,W,1,06,1.2,113.1,M,-33.4,M,,0000*6A
$GPRMC,200852.800,A,3845.0635,N,07727.2772,W,0.18,102.36,020916,,,A*75
$GPVTG,102.36,T,,M,0.18,N,0.3,K,A*01
$GPGGA,200853.000,3845.0635,N,07727.2772,W,1,06,1.2,113.1,M,-33.4,M,,0000*63
$GPRMC,200853.000,A,3845.0635,N,07727.2772,W,0.09,102.36,020916,,,A*7C
$GPVTG,102.36,T,,M,0.09,N,0.2,K,A*00
$GPGGA,200853.200,3845.0635,N,07727.2772,W,1,06,1.2,113.1,M,-33.4,M,,0000*61
$GPRMC,200853.200,A,3845.0635,N,07727.2772,W,0.07,102.36,020916,,,A*70
$GPVTG,102.36,T,,M,0.07,N,0.1,K,A*0D
$GPGGA,200853.400,3845.0635,N,07727.2772,W,1,06,1.2,113.2,M,-33.4,M,,0000*64
$GPRMC,200853.400,A,3845.0635,N,07727.2772,W,0.07,102.36,020916,,,A*76
$GPVTG,102.36,T,,M,0.07,N,0.1,K,A*0D
$GPGGA,200853.600,3845.0635,N,07727.2772,W,1,06,1.2,113.2,M,-33.4,M,,0000*66
$GPRMC,200853.600,A,3845.0635,N,07727.2772,W,0.13,102.36,020916,,,A*71
$GPVTG,102.36,T,,M,0.13,N,0.2,K,A*0B
$GPGGA,200853.800,3845.0635,N,07727.2772,W,1,06,1.2,113.2,M,-33.4,M,,0000*68
$GPRMC,200853.800,A,3845.0635,N,07727.2772,W,0.17,102.36,020916,,,A*7B
$GPVTG,102.36,T,,M,0.17,N,0.3,K,A*0E
$GPGGA,200854.000,3845.0635,N,07727.2772,W,1,06,1.2,113.2,M,-33.4,M,,0000*67
$GPRMC,200854.000,A,3845.0635,N,07727.2772,W,0.04,102.36,020916,,,A*76
$GPVTG,102.36,T,,M,0.04,N,0.1,K,A*0E
$GPGGA,200854.200,3845.0635,N,07727.2772,W,1,06,1.2,113.2,M,-33.4,M,,0000*65
$GPRMC,200854.200,A,3845.0635,N,07727.2772,W,0.18,102.36,020916,,,A*79
$GPVTG,102.36,T,,M,0.18,N,0.3,K,A*01
$GPGGA,200854.400,3845.0635,N,07727.2771,W,1,06,1.2,113.3,M,-33.4,M,,0000*61
$GPRMC,200854.400,A,3845.0635,N,07727.2771,W,0.22,102.36,020916,,,A*75
$GPVTG,102.36,T,,M,0.22,N,0.4,K,A*0F
$GPGGA,200854.600,3845.0635,N,07727.2772,W,1,06,1.2,113.3,M,-33.4,M,,0000*60
$GPRMC,200854.600,A,3845.0635,N,07727.2772,W,0.16,102.36,020916,,,A*73
$GPVTG,102.36,T,,M,0.16,N,0.3,K,A*0F
$GPGGA,200854.800,3845.0635,N,07727.2771,W,1,06,1.2,113.3,M,-33.4,M,,0000*6D
$GPRMC,200854.800,A,3845.0635,N,07727.2771,W,0.10,102.36,020916,,,A*78
$GPVTG,102.36,T,,M,0.10,N,0.2,K,A*08
$GPGGA,200855.000,3845.0635,N,07727.2771,W,1,06,1.2,113.3,M,-33.4,M,,0000*64
$GPRMC,200855.000,A,3845.0635,N,07727.2771,W,0.09,102.36,020916,,,A*79
$GPVTG,102.36,T,,M,0.09,N,0.2,K,A*00
$GPGGA,200855.200,3845.0635,N,07727.2771,W,1,06,1.2,113.3,M,-33.4,M,,0000*66
$GPRMC,200855.200,A,3845.0635,N,07727.2771,W,0.16,102.36,020916,,,A*75
$GPVTG,102.36,T,,M,0.16,N,0.3,K,A*0F
$GPGGA,200855.400,3845.0635,N,07727.2772,W,1,06,1.2,113.4,M,-33.4,M,,0000*64
$GPRMC,200855.400,A,3845.0635,N,07727.2772,W,0.27,102.36,020916,,,A*72
$GPVTG,102.36,T,,M,0.27,N,0.5,K,A*0B
$GPGGA,200855.600,3845.0635,N,07727.2771,W,1,06,1.2,113.4,M,-33.4,M,,0000*65
$GPRMC,200855.600,A,3845.0635,N,07727.2771,W,0.16,102.36,020916,,,A*71
$GPVTG,102.36,T,,M,0.16,N,0.3,K,A*0F
$GPGGA,200855.800,3845.0635,N,07727.2771,W,1,06,1.2,113.4,M,-33.4,M,,0000*6B
$GPRMC,200855.800,A,3845.0635,N,07727.2771,W,0.06,102.36,020916,,,A*7E
$GPVTG,102.36,T,,M,0.06,N,0.1,K,A*0C
$GPGGA,200856.000,3845.0635,N,07727.2771,W,1,06,1.2,113.4,M,-33.4,M,,0000*60
$GPRMC,200856.000,A,3845.0635,N,07727.2771,W,0.12,102.36,020916,,,A*70
$GPVTG,102.36,T,,M,0.12,N,0.2,K,A*0A
$GPGGA,200856.200,3845.0635,N,07727.2771,W,1,06,1.2,113.4,M,-33.4,M,,0000*62
$GPRMC,200856.200,A,3845.0635,N,07727.2771,W,0.11,102.36,020916,,,A*71
$GPVTG,102.36,T,,M,0.11,N,0.2,K,A*09
$GPGGA,200856.400,3845.0635,N,07727.2771,W,1,06,1.2,113.4,M,-33.4,M,,0000*64
$GPRMC,200856.400,A,3845.0635,N,07727.2771,W,0.13,102.36,020916,,,A*75
$GPVTG,102.36,T,,M,0.13,N,0.2,K,A*0B
$GPGGA,200856.600,3845.0635,N,07727.2772,W,1,06,1.2,113.4,M,-33.4,M,,0000*65
$GPRMC,200856.600,A,3845.0635,N,07727.2772,W,0.36,102.36,020916,,,A*73
$GPVTG,102.36,T,,M,0.36,N,0.7,K,A*09
$GPGGA,200856.800,3845.0635,N,07727.2772,W,1,06,1.2,113.4,M,-33.4,M,,0000*6B
$GPRMC,200856.800,A,3845.0635,N,07727.2772,W,0.32,102.36,020916,,,A*79
$GPVTG,102.36,T,,M,0.32,N,0.6,K,A*0C
$GPGGA,200857.000,3845.0635,N,07727.2772,W,1,06,1.2,113.4,M,-33.4,M,,0000*62
$GPRMC,200857.000,A,3845.0635,N,07727.2772,W,0.26,102.36,020916,,,A*75
$GPVTG,102.36,T,,M,0.26,N,0.5,K,A*0A
$GPGGA,200857.200,3845.0635,N,07727.2772,W,1,06,1.2,113.4,M,-33.4,M,,0000*60
$GPRMC,200857.200,A,3845.0635,N,07727.2772,W,0.18,102.36,020916,,,A*7A
$GPVTG,102.36,T,,M,0.18,N,0.3,K,A*01
$GPGGA,200857.400,3845.0635,N,07727.2772,W,1,06,1.2,113.4,M,-33.4,M,,0000*66
$GPRMC,200857.400,A,3845.0635,N,07727.2772,W,0.09,102.36,020916,,,A*7C
$GPVTG,102.36,T,,M,0.09,N,0.2,K,A*00
$GPGGA,200857.600,3845.0635,N,07727.2772,W,1,06,1.2,113.4,M,-33.4,M,,0000*64
$GPRMC,200857.600,A,3845.0635,N,07727.2772,W,0.04,102.36,020916,,,A*73
$GPVTG,102.36,T,,M,0.04,N,0.1,K,A*0E
$GPGGA,200857.800,3845.0635,N,07727.2772,W,1,06,1.2,113.4,M,-33.4,M,,0000*6A
$GPRMC,200857.800,A,3845.0635,N,07727.2772,W,0.15,102.36,020916,,,A*7D
$GPVTG,102.36,T,,M,0.15,N,0.3,K,A*0C
$GPGGA,200858.000,3845.0635,N,07727.2772,W,1,06,1.2,113.4,M,-33.4,M,,0000*6D
$GPRMC,200858.000,A,3845.0635,N,07727.2772,W,0.25,102.36,020916,,,A*79
$GPVTG,102.36,T,,M,0.25,N,0.5,K,A*09
$GPGGA,200858.200,3845.0635,N,07727.2772,W,1,06,1.2,113.4,M,-33.4,M,,0000*6F
$GPRMC,200858.200,A,3845.0635,N,07727.2772,W,0.21,102.36,020916,,,A*7F
$GPVTG,102.36,T,,M,0.21,N,0.4,K,A*0C
$GPGGA,200858.400,3845.0635,N,07727.2772,W,1,06,1.2,113.4,M,-33.4,M,,0000*69
$GPRMC,200858.400,A,3845.0635,N,07727.2772,W,0.21,102.36,020916,,,A*79
$GPVTG,102.36,T,,M,0.21,N,0.4,K,A*0C
$GPGGA,200858.600,3845.0635,N,07727.2772,W,1,06,1.2,113.4,M,-33.4,M,,0000*6B
$GPRMC,200858.600,A,3845.0635,N,07727.2772,W,0.22,102.36,020916,,,A*78
$GPVTG,102.36,T,,M,0.22,N,0.4,K,A*0F
$GPGGA,200858.800,3845.0635,N,07727.2772,W,1,06,1.2,113.4,M,-33.4,M,,0000*65
$GPRMC,200858.800,A,3845.0635,N,07727.2772,W,0.14,102.36,020916,,,A*73
$GPVTG,102.36,T,,M,0.14,N,0.3,K,A*0D
$GPGGA,200859.000,3845.0635,N,07727.2771,W,1,06,1.2,113.4,M,-33.4,M,,0000*6F
$GPRMC,200859.000,A,3845.0635,N,07727.2771,W,0.14,102.36,020916,,,A*79
$GPVTG,102.36,T,,M,0.14,N,0.3,K,A*0D
$GPGGA,200859.200,3845.0635,N,07727.2771,W,1,06,1.2,113.4,M,-33.4,M,,0000*6D
$GPRMC,200859.200,A,3845.0635,N,07727.2771,W,0.16,102.36,020916,,,A*79
$GPVTG,102.36,T,,M,0.16,N,0.3,K,A*0F
$GPGGA,200859.400,3845.0635,N,07727.2771,W,1,06,1.2,113.4,M,-33.4,M,,0000*6B
$GPRMC,200859.400,A,3845.0635,N,07727.2771,W,0.16,102.36,020916,,,A*7F
$GPVTG,102.36,T,,M,0.16,N,0.3,K,A*0F
$GPGGA,200859.600,3845.0635,N,07727.2771,W,1,06,1.2,113.4,M,-33.4,M,,0000*69
$GPRMC,200859.600,A,3845.0635,N,07727.2771,W,0.14,102.36,020916,,,A*7F
$GPVTG,102.36,T,,M,0.14,N,0.3,K,A*0D
$GPGGA,200859.800,3845.0635,N,07727.2771,W,1,06,1.2,113.4,M,-33.4,M,,0000*67
$GPRMC,200859.800,A,3845.0635,N,07727.2771,W,0.05,102.36,020916,,,A*71
$GPVTG,102.36,T,,M,0.05,N,0.1,K,A*0F
$GPGGA,200900.000,3845.0635,N,07727.2771,W,1,06,1.2,113.4,M,-33.4,M,,0000*62
$GPRMC,200900.000,A,3845.0635,N,07727.2771,W,0.16,102.36,020916,,,A*76
$GPVTG,102.36,T,,M,0.16,N,0.3,K,A*0F
$GPGGA,200900.200,3845.0634,N,07727.2771,W,1,06,1.2,113.4,M,-33.4,M,,0000*61
$GPRMC,200900.200,A,3845.0634,N,07727.2771,W,0.21,102.36,020916,,,A*71
$GPVTG,102.36,T,,M,0.21,N,0.4,K,A*0C
$GPGGA,200900.400,3845.0634,N,07727.2771,W,1,06,1.2,113.4,M,-33.4,M,,0000*67
$GPRMC,200900.400,A,3845.0634,N,07727.2771,W,0.10,102.36,020916,,,A*75
$GPVTG,102.36,T,,M,0.10,N,0.2,K,A*08
$GPGGA,200900.600,3845.0634,N,07727.2771,W,1,06,1.2,113.4,M,-33.4,M,,0000*65
$GPRMC,200900.600,A,3845.0634,N,07727.2771,W,0.17,102.36,020916,,,A*70
$GPVTG,102.36,T,,M,0.17,N,0.3,K,A*0E
$GPGGA,200900.800,3845.0634,N,07727.2771,W,1,06,1.2,113.4,M,-33.4,M,,0000*6B
$GPRMC,200900.800,A,3845.0634,N,07727.2771,W,0.20,102.36,020916,,,A*7A
$GPVTG,102.36,T,,M,0.20,N,0.4,K,A*0D
$GPGGA,200901.000,3845.0634,N,07727.2771,W,1,06,1.2,113.4,M,-33.4,M,,0000*62
$GPRMC,200901.000,A,3845.0634,N,07727.2771,W,0.02,102.36,020916,,,A*73
$GPVTG,102.36,T,,M,0.02,N,0.0,K,A*09
$GPGGA,200901.200,3845.0634,N,07727.2771,W,1,06,1.2,113.4,M,-33.4,M,,0000*60
$GPRMC,200901.200,A,3845.0634,N,07727.2771,W,0.10,102.36,020916,,,A*72
$GPVTG,102.36,T,,M,0.10,N,0.2,K,A*08
$GPGGA,200901.400,3845.0635,N,07727.2771,W,1,06,1.2,113.4,M,-33.4,M,,0000*67
$GPRMC,200901.400,A,3845.0635,N,07727.2771,W,0.13,102.36,020916,,,A*76
$GPVTG,102.36,T,,M,0.13,N,0.2,K,A*0B
$GPGGA,200901.600,3845.0635,N,07727.2771,W,1,06,1.2,113.4,M,-33.4,M,,0000*65
$GPRMC,200901.600,A,3845.0635,N,07727.2771,W,0.23,102.36,020916,,,A*77
$GPVTG,102.36,T,,M,0.23,N,0.4,K,A*0E
$GPGGA,200901.800,3845.0635,N,07727.2771,W,1,06,1.2,113.4,M,-33.4,M,,0000*6B
$GPRMC,200901.800,A,3845.0635,N,07727.2771,W,0.20,102.36,020916,,,A*7A
$GPVTG,102.36,T,,M,0.20,N,0.4,K,A*0D
$GPGGA,200902.000,3845.0635,N,07727.2771,W,1,06,1.2,113.4,M,-33.4,M,,0000*60
$GPRMC,200902.000,A,3845.0635,N,07727.2771,W,0.16,102.36,020916,,,A*74
$GPVTG,102.36,T,,M,0.16,N,0.3,K,A*0F
$GPGGA,200902.200,3845.0635,N,07727.2771,W,1,06,1.2,113.4,M,-33.4,M,,0000*62
$GPRMC,200902.200,A,3845.0635,N,07727.2771,W,0.12,102.36,020916,,,A*72
$GPVTG,102.36,T,,M,0.12,N,0.2,K,A*0A
$GPGGA,200902.400,3845.0635,N,07727.2771,W,1,06,1.2,113.4,M,-33.4,M,,0000*64
$GPRMC,200902.400,A,3845.0635,N,07727.2771,W,0.14,102.36,020916,,,A*72
$GPVTG,102.36,T,,M,0.14,N,0.3,K,A*0D
$GPGGA,200902.600,3845.0635,N,07727.2771,W,1,06,1.2,113.4,M,-33.4,M,,0000*66
$GPRMC,200902.600,A,3845.0635,N,07727.2771,W,0.09,102.36,020916,,,A*7C
$GPVTG,102.36,T,,M,0.09,N,0.2,K,A*00
$GPGGA,200902.800,3845.0635,N,07727.2770,W,1,06,1.2,113.4,M,-33.4,M,,0000*69
$GPRMC,200902.800,A,3845.0635,N,07727.2770,W,0.13,102.36,020916,,,A*78
$GPVTG,102.36,T,,M,0.13,N,0.2,K,A*0B
$GPGGA,200903.000,3845.0635,N,07727.2770,W,1,06,1.2,113.5,M,-33.4,M,,0000*61
$GPRMC,200903.000,A,3845.0635,N,07727.2770,W,0.23,102.36,020916,,,A*72
$GPVTG,102.36,T,,M,0.23,N,0.4,K,A*0E
$GPGGA,200903.200,3845.0635,N,07727.2770,W,1,06,1.2,113.5,M,-33.4,M,,0000*63
$GPRMC,200903.200,A,3845.0635,N,07727.2770,W,0.32,102.36,020916,,,A*70
$GPVTG,102.36,T,,M,0.32,N,0.6,K,A*0C
$GPGGA,200903.400,3845.0635,N,07727.2770,W,1,06,1.2,113.5,M,-33.4,M,,0000*65
$GPRMC,200903.400,A,3845.0635,N,07727.2770,W,0.21,102.36,020916,,,A*74
$GPVTG,102.36,T,,M,0.21,N,0.4,K,A*0C
$GPGGA,200903.600,3845.0635,N,07727.2770,W,1,06,1.2,113.5,M,-33.4,M,,0000*67
$GPRMC,200903.600,A,3845.0635,N,07727.2770,W,0.15,102.36,020916,,,A*71
$GPVTG,102.36,T,,M,0.15,N,0.3,K,A*0C
$GPGGA,200903.800,3845.0636,N,07727.2770,W,1,06,1.2,113.5,M,-33.4,M,,0000*6A
$GPRMC,200903.800,A,3845.0636,N,07727.2770,W,0.17,102.36,020916,,,A*7E
$GPVTG,102.36,T,,M,0.17,N,0.3,K,A*0E
$GPGGA,200904.000,3845.0636,N,07727.2770,W,1,06,1.2,113.5,M,-33.4,M,,0000*65
$GPRMC,200904.000,A,3845.0636,N,07727.2770,W,0.19,102.36,020916,,,A*7F
$GPVTG,102.36,T,,M,0.19,N,0.3,K,A*00
$GPGGA,200904.200,3845.0636,N,07727.2770,W,1,06,1.2,113.5,M,-33.4,M,,0000*67
$GPRMC,200904.200,A,3845.0636,N,07727.2770,W,0.08,102.36,020916,,,A*7D
$GPVTG,102.36,T,,M,0.08,N,0.1,K,A*02
$GPGGA,200904.400,3845.0636,N,07727.2770,W,1,06,1.2,113.5,M,-33.4,M,,0000*61
$GPRMC,200904.400,A,3845.0636,N,07727.2770,W,0.16,102.36,020916,,,A*74
$GPVTG,102.36,T,,M,0.16,N,0.3,K,A*0F
$GPGGA,200904.600,3845.0636,N,07727.2770,W,1,06,1.2,113.5,M,-33.4,M,,0000*63
$GPRMC,200904.600,A,3845.0636,N,07727.2770,W,0.13,102.36,020916,,,A*73
$GPVTG,102.36,T,,M,0.13,N,0.2,K,A*0B
$GPGGA,200904.800,3845.0636,N,07727.2770,W,1,06,1.2,113.5,M,-33.4,M,,0000*6D
$GPRMC,200904.800,A,3845.0636,N,07727.2770,W,0.15,102.36,020916,,,A*7B
$GPVTG,102.36,T,,M,0.15,N,0.3,K,A*0C
$GPGGA,200905.000,3845.0636,N,07727.2771,W,1,06,1.2,113.5,M,-33.4,M,,0000*65
$GPRMC,200905.000,A,3845.0636,N,07727.2771,W,0.35,102.36,020916,,,A*71
$GPVTG,102.36,T,,M,0.35,N,0.7,K,A*0A
$GPGGA,200905.200,3845.0636,N,07727.2771,W,1,06,1.2,113.5,M,-33.4,M,,0000*67
$GPRMC,200905.200,A,3845.0636,N,07727.2771,W,0.41,102.36,020916,,,A*70
$GPVTG,102.36,T,,M,0.41,N,0.8,K,A*06
$GPGGA,200905.400,3845.0637,N,07727.2771,W,1,06,1.2,113.6,M,-33.4,M,,0000*63
$GPRMC,200905.400,A,3845.0637,N,07727.2771,W,0.40,102.36,020916,,,A*76
$GPVTG,102.36,T,,M,0.40,N,0.7,K,A*08
$GPGGA,200905.600,3845.0637,N,07727.2771,W,1,06,1.2,113.6,M,-33.4,M,,0000*61
$GPRMC,200905.600,A,3845.0637,N,07727.2771,W,0.31,102.36,020916,,,A*72
$GPVTG,102.36,T,,M,0.31,N,0.6,K,A*0F
$GPGGA,200905.800,3845.0637,N,07727.2771,W,1,06,1.2,113.6,M,-33.4,M,,0000*6F
$GPRMC,200905.800,A,3845.0637,N,07727.2771,W,0.23,102.36,020916,,,A*7F
$GPVTG,102.36,T,,M,0.23,N,0.4,K,A*0E
$GPGGA,200906.000,3845.0637,N,07727.2771,W,1,06,1.2,113.6,M,-33.4,M,,0000*64
$GPRMC,200906.000,A,3845.0637,N,07727.2771,W,0.26,102.36,020916,,,A*71
